2015-02-16 15:47:23 notification_id=1, instance_id=1, notification_type=1, notification_reason=0, object_id=139, start_time=1423505110000, start_time_usec=511861, end_time=1423505110000, end_time_usec=514124, state=2, output="CRITICAL - load average: 19.61, 10.53, 4.33", long_output="CRITICAL - load average: 19.61, 10.53, 4.33", escalated=0, contacts_notified=1, sender_name1="localhost", sender_name2="Current Load", sender_objecttype=2, receiver_name1="nagiosadmin", receiver_name2="NULL", receiver_objecttype=10
2015-02-16 15:47:23 notification_id=2, instance_id=1, notification_type=1, notification_reason=0, object_id=139, start_time=1423509004000, start_time_usec=888377, end_time=1423509004000, end_time_usec=888591, state=2, output="CRITICAL - load average: 17.93, 17.98, 17.73", long_output="CRITICAL - load average: 17.93, 17.98, 17.73", escalated=0, contacts_notified=1, sender_name1="localhost", sender_name2="Current Load", sender_objecttype=2, receiver_name1="nagiosadmin", receiver_name2="NULL", receiver_objecttype=10
2015-02-16 15:47:23 notification_id=3, instance_id=1, notification_type=1, notification_reason=0, object_id=139, start_time=1423512604000, start_time_usec=891949, end_time=1423512604000, end_time_usec=892147, state=2, output="CRITICAL - load average: 17.58, 17.65, 17.76", long_output="CRITICAL - load average: 17.58, 17.65, 17.76", escalated=0, contacts_notified=1, sender_name1="localhost", sender_name2="Current Load", sender_objecttype=2, receiver_name1="nagiosadmin", receiver_name2="NULL", receiver_objecttype=10
2015-02-16 15:47:23 notification_id=4, instance_id=1, notification_type=1, notification_reason=0, object_id=139, start_time=1423516204000, start_time_usec=897783, end_time=1423516204000, end_time_usec=898002, state=2, output="CRITICAL - load average: 18.52, 18.12, 17.89", long_output="CRITICAL - load average: 18.52, 18.12, 17.89", escalated=0, contacts_notified=1, sender_name1="localhost", sender_name2="Current Load", sender_objecttype=2, receiver_name1="nagiosadmin", receiver_name2="NULL", receiver_objecttype=10
2015-02-16 15:47:23 notification_id=5, instance_id=1, notification_type=1, notification_reason=0, object_id=139, start_time=1423519804000, start_time_usec=911113, end_time=1423519804000, end_time_usec=911304, state=2, output="CRITICAL - load average: 19.44, 18.82, 18.78", long_output="CRITICAL - load average: 19.44, 18.82, 18.78", escalated=0, contacts_notified=1, sender_name1="localhost", sender_name2="Current Load", sender_objecttype=2, receiver_name1="nagiosadmin", receiver_name2="NULL", receiver_objecttype=10
2015-02-16 15:47:23 notification_id=6, instance_id=1, notification_type=1, notification_reason=0, object_id=139, start_time=1423523404000, start_time_usec=879657, end_time=1423523404000, end_time_usec=879888, state=2, output="CRITICAL - load average: 18.69, 18.25, 18.27", long_output="CRITICAL - load average: 18.69, 18.25, 18.27", escalated=0, contacts_notified=1, sender_name1="localhost", sender_name2="Current Load", sender_objecttype=2, receiver_name1="nagiosadmin", receiver_name2="NULL", receiver_objecttype=10
2015-02-16 15:47:23 notification_id=7, instance_id=1, notification_type=1, notification_reason=0, object_id=139, start_time=1423527004000, start_time_usec=883210, end_time=1423527004000, end_time_usec=883392, state=2, output="CRITICAL - load average: 17.83, 17.89, 18.00", long_output="CRITICAL - load average: 17.83, 17.89, 18.00", escalated=0, contacts_notified=1, sender_name1="localhost", sender_name2="Current Load", sender_objecttype=2, receiver_name1="nagiosadmin", receiver_name2="NULL", receiver_objecttype=10
2015-02-16 15:47:23 notification_id=8, instance_id=1, notification_type=1, notification_reason=0, object_id=139, start_time=1423530604000, start_time_usec=887585, end_time=1423530604000, end_time_usec=887831, state=2, output="CRITICAL - load average: 18.81, 18.00, 17.80", long_output="CRITICAL - load average: 18.81, 18.00, 17.80", escalated=0, contacts_notified=1, sender_name1="localhost", sender_name2="Current Load", sender_objecttype=2, receiver_name1="nagiosadmin", receiver_name2="NULL", receiver_objecttype=10
2015-02-16 15:47:23 notification_id=9, instance_id=1, notification_type=1, notification_reason=0, object_id=139, start_time=1423534204000, start_time_usec=903306, end_time=1423534204000, end_time_usec=903598, state=2, output="CRITICAL - load average: 18.26, 18.11, 18.01", long_output="CRITICAL - load average: 18.26, 18.11, 18.01", escalated=0, contacts_notified=1, sender_name1="localhost", sender_name2="Current Load", sender_objecttype=2, receiver_name1="nagiosadmin", receiver_name2="NULL", receiver_objecttype=10
2015-02-16 15:47:23 notification_id=10, instance_id=1, notification_type=1, notification_reason=0, object_id=139, start_time=1423537804000, start_time_usec=885497, end_time=1423537804000, end_time_usec=885701, state=2, output="CRITICAL - load average: 17.94, 17.88, 17.88", long_output="CRITICAL - load average: 17.94, 17.88, 17.88", escalated=0, contacts_notified=1, sender_name1="localhost", sender_name2="Current Load", sender_objecttype=2, receiver_name1="nagiosadmin", receiver_name2="NULL", receiver_objecttype=10
2015-02-16 15:47:23 notification_id=11, instance_id=1, notification_type=1, notification_reason=0, object_id=139, start_time=1423541404000, start_time_usec=885201, end_time=1423541404000, end_time_usec=885398, state=2, output="CRITICAL - load average: 17.96, 18.01, 17.92", long_output="CRITICAL - load average: 17.96, 18.01, 17.92", escalated=0, contacts_notified=1, sender_name1="localhost", sender_name2="Current Load", sender_objecttype=2, receiver_name1="nagiosadmin", receiver_name2="NULL", receiver_objecttype=10
2015-02-16 15:47:23 notification_id=12, instance_id=1, notification_type=1, notification_reason=0, object_id=139, start_time=1423545004000, start_time_usec=897247, end_time=1423545004000, end_time_usec=897482, state=2, output="CRITICAL - load average: 18.05, 18.17, 18.03", long_output="CRITICAL - load average: 18.05, 18.17, 18.03", escalated=0, contacts_notified=1, sender_name1="localhost", sender_name2="Current Load", sender_objecttype=2, receiver_name1="nagiosadmin", receiver_name2="NULL", receiver_objecttype=10
2015-02-16 15:47:23 notification_id=13, instance_id=1, notification_type=1, notification_reason=0, object_id=139, start_time=1423548604000, start_time_usec=883259, end_time=1423548604000, end_time_usec=883465, state=2, output="CRITICAL - load average: 19.03, 18.33, 18.24", long_output="CRITICAL - load average: 19.03, 18.33, 18.24", escalated=0, contacts_notified=1, sender_name1="localhost", sender_name2="Current Load", sender_objecttype=2, receiver_name1="nagiosadmin", receiver_name2="NULL", receiver_objecttype=10
2015-02-16 15:47:23 notification_id=14, instance_id=1, notification_type=1, notification_reason=0, object_id=139, start_time=1423552204000, start_time_usec=878147, end_time=1423552204000, end_time_usec=878348, state=2, output="CRITICAL - load average: 18.19, 17.94, 17.94", long_output="CRITICAL - load average: 18.19, 17.94, 17.94", escalated=0, contacts_notified=1, sender_name1="localhost", sender_name2="Current Load", sender_objecttype=2, receiver_name1="nagiosadmin", receiver_name2="NULL", receiver_objecttype=10
2015-02-16 15:47:23 notification_id=15, instance_id=1, notification_type=1, notification_reason=0, object_id=139, start_time=1423555804000, start_time_usec=896308, end_time=1423555804000, end_time_usec=896535, state=2, output="CRITICAL - load average: 18.52, 18.03, 17.86", long_output="CRITICAL - load average: 18.52, 18.03, 17.86", escalated=0, contacts_notified=1, sender_name1="localhost", sender_name2="Current Load", sender_objecttype=2, receiver_name1="nagiosadmin", receiver_name2="NULL", receiver_objecttype=10
2015-02-16 15:47:23 notification_id=16, instance_id=1, notification_type=1, notification_reason=0, object_id=139, start_time=1423559404000, start_time_usec=882173, end_time=1423559404000, end_time_usec=882387, state=2, output="CRITICAL - load average: 18.43, 18.07, 17.93", long_output="CRITICAL - load average: 18.43, 18.07, 17.93", escalated=0, contacts_notified=1, sender_name1="localhost", sender_name2="Current Load", sender_objecttype=2, receiver_name1="nagiosadmin", receiver_name2="NULL", receiver_objecttype=10
2015-02-16 15:47:23 notification_id=17, instance_id=1, notification_type=1, notification_reason=0, object_id=139, start_time=1423563004000, start_time_usec=871526, end_time=1423563004000, end_time_usec=871750, state=2, output="CRITICAL - load average: 18.08, 17.87, 17.83", long_output="CRITICAL - load average: 18.08, 17.87, 17.83", escalated=0, contacts_notified=1, sender_name1="localhost", sender_name2="Current Load", sender_objecttype=2, receiver_name1="nagiosadmin", receiver_name2="NULL", receiver_objecttype=10
2015-02-16 15:47:23 notification_id=18, instance_id=1, notification_type=1, notification_reason=0, object_id=139, start_time=1423566604000, start_time_usec=895128, end_time=1423566604000, end_time_usec=895336, state=2, output="CRITICAL - load average: 17.56, 17.74, 17.76", long_output="CRITICAL - load average: 17.56, 17.74, 17.76", escalated=0, contacts_notified=1, sender_name1="localhost", sender_name2="Current Load", sender_objecttype=2, receiver_name1="nagiosadmin", receiver_name2="NULL", receiver_objecttype=10
2015-02-16 15:47:23 notification_id=19, instance_id=1, notification_type=1, notification_reason=0, object_id=139, start_time=1423570204000, start_time_usec=905099, end_time=1423570204000, end_time_usec=905299, state=2, output="CRITICAL - load average: 18.85, 18.19, 18.02", long_output="CRITICAL - load average: 18.85, 18.19, 18.02", escalated=0, contacts_notified=1, sender_name1="localhost", sender_name2="Current Load", sender_objecttype=2, receiver_name1="nagiosadmin", receiver_name2="NULL", receiver_objecttype=10
2015-02-16 15:47:23 notification_id=20, instance_id=1, notification_type=1, notification_reason=0, object_id=139, start_time=1423573804000, start_time_usec=886092, end_time=1423573804000, end_time_usec=886271, state=2, output="CRITICAL - load average: 18.14, 18.39, 18.42", long_output="CRITICAL - load average: 18.14, 18.39, 18.42", escalated=0, contacts_notified=1, sender_name1="localhost", sender_name2="Current Load", sender_objecttype=2, receiver_name1="nagiosadmin", receiver_name2="NULL", receiver_objecttype=10
2015-02-16 15:47:23 notification_id=21, instance_id=1, notification_type=1, notification_reason=0, object_id=139, start_time=1423577404000, start_time_usec=873947, end_time=1423577404000, end_time_usec=874172, state=2, output="CRITICAL - load average: 18.22, 17.64, 17.88", long_output="CRITICAL - load average: 18.22, 17.64, 17.88", escalated=0, contacts_notified=1, sender_name1="localhost", sender_name2="Current Load", sender_objecttype=2, receiver_name1="nagiosadmin", receiver_name2="NULL", receiver_objecttype=10
2015-02-16 15:47:23 notification_id=22, instance_id=1, notification_type=1, notification_reason=0, object_id=139, start_time=1423581004000, start_time_usec=875128, end_time=1423581004000, end_time_usec=875343, state=2, output="CRITICAL - load average: 17.43, 17.36, 17.30", long_output="CRITICAL - load average: 17.43, 17.36, 17.30", escalated=0, contacts_notified=1, sender_name1="localhost", sender_name2="Current Load", sender_objecttype=2, receiver_name1="nagiosadmin", receiver_name2="NULL", receiver_objecttype=10
2015-02-16 15:47:23 notification_id=23, instance_id=1, notification_type=1, notification_reason=0, object_id=139, start_time=1423584604000, start_time_usec=886211, end_time=1423584604000, end_time_usec=886436, state=2, output="CRITICAL - load average: 17.04, 17.04, 17.02", long_output="CRITICAL - load average: 17.04, 17.04, 17.02", escalated=0, contacts_notified=1, sender_name1="localhost", sender_name2="Current Load", sender_objecttype=2, receiver_name1="nagiosadmin", receiver_name2="NULL", receiver_objecttype=10
2015-02-16 15:47:23 notification_id=24, instance_id=1, notification_type=1, notification_reason=0, object_id=139, start_time=1423588204000, start_time_usec=884245, end_time=1423588204000, end_time_usec=884495, state=2, output="CRITICAL - load average: 19.01, 18.55, 18.23", long_output="CRITICAL - load average: 19.01, 18.55, 18.23", escalated=0, contacts_notified=1, sender_name1="localhost", sender_name2="Current Load", sender_objecttype=2, receiver_name1="nagiosadmin", receiver_name2="NULL", receiver_objecttype=10
2015-02-16 15:47:23 notification_id=25, instance_id=1, notification_type=1, notification_reason=0, object_id=139, start_time=1423591804000, start_time_usec=888050, end_time=1423591804000, end_time_usec=888252, state=2, output="CRITICAL - load average: 17.67, 17.60, 17.67", long_output="CRITICAL - load average: 17.67, 17.60, 17.67", escalated=0, contacts_notified=1, sender_name1="localhost", sender_name2="Current Load", sender_objecttype=2, receiver_name1="nagiosadmin", receiver_name2="NULL", receiver_objecttype=10
2015-02-16 15:47:23 notification_id=26, instance_id=1, notification_type=1, notification_reason=0, object_id=139, start_time=1423595404000, start_time_usec=899016, end_time=1423595404000, end_time_usec=899212, state=2, output="CRITICAL - load average: 19.28, 18.25, 18.02", long_output="CRITICAL - load average: 19.28, 18.25, 18.02", escalated=0, contacts_notified=1, sender_name1="localhost", sender_name2="Current Load", sender_objecttype=2, receiver_name1="nagiosadmin", receiver_name2="NULL", receiver_objecttype=10
2015-02-16 15:47:23 notification_id=27, instance_id=1, notification_type=1, notification_reason=0, object_id=139, start_time=1423599004000, start_time_usec=897484, end_time=1423599004000, end_time_usec=897722, state=2, output="CRITICAL - load average: 18.42, 17.57, 17.57", long_output="CRITICAL - load average: 18.42, 17.57, 17.57", escalated=0, contacts_notified=1, sender_name1="localhost", sender_name2="Current Load", sender_objecttype=2, receiver_name1="nagiosadmin", receiver_name2="NULL", receiver_objecttype=10
2015-02-16 15:47:23 notification_id=28, instance_id=1, notification_type=1, notification_reason=0, object_id=139, start_time=1423602604000, start_time_usec=894960, end_time=1423602604000, end_time_usec=895153, state=2, output="CRITICAL - load average: 18.21, 17.47, 17.31", long_output="CRITICAL - load average: 18.21, 17.47, 17.31", escalated=0, contacts_notified=1, sender_name1="localhost", sender_name2="Current Load", sender_objecttype=2, receiver_name1="nagiosadmin", receiver_name2="NULL", receiver_objecttype=10
2015-02-16 15:47:23 notification_id=29, instance_id=1, notification_type=1, notification_reason=0, object_id=139, start_time=1423606204000, start_time_usec=889990, end_time=1423606204000, end_time_usec=890200, state=2, output="CRITICAL - load average: 17.13, 17.05, 17.07", long_output="CRITICAL - load average: 17.13, 17.05, 17.07", escalated=0, contacts_notified=1, sender_name1="localhost", sender_name2="Current Load", sender_objecttype=2, receiver_name1="nagiosadmin", receiver_name2="NULL", receiver_objecttype=10
2015-02-16 15:47:23 notification_id=30, instance_id=1, notification_type=1, notification_reason=0, object_id=139, start_time=1423609804000, start_time_usec=875049, end_time=1423609804000, end_time_usec=875276, state=2, output="CRITICAL - load average: 16.89, 17.08, 17.06", long_output="CRITICAL - load average: 16.89, 17.08, 17.06", escalated=0, contacts_notified=1, sender_name1="localhost", sender_name2="Current Load", sender_objecttype=2, receiver_name1="nagiosadmin", receiver_name2="NULL", receiver_objecttype=10
2015-02-16 15:47:23 notification_id=31, instance_id=1, notification_type=1, notification_reason=0, object_id=139, start_time=1423613404000, start_time_usec=896106, end_time=1423613404000, end_time_usec=896309, state=2, output="CRITICAL - load average: 16.99, 16.99, 17.00", long_output="CRITICAL - load average: 16.99, 16.99, 17.00", escalated=0, contacts_notified=1, sender_name1="localhost", sender_name2="Current Load", sender_objecttype=2, receiver_name1="nagiosadmin", receiver_name2="NULL", receiver_objecttype=10
2015-02-16 15:47:23 notification_id=32, instance_id=1, notification_type=1, notification_reason=0, object_id=139, start_time=1423617004000, start_time_usec=883395, end_time=1423617004000, end_time_usec=883587, state=2, output="CRITICAL - load average: 16.72, 16.81, 16.93", long_output="CRITICAL - load average: 16.72, 16.81, 16.93", escalated=0, contacts_notified=1, sender_name1="localhost", sender_name2="Current Load", sender_objecttype=2, receiver_name1="nagiosadmin", receiver_name2="NULL", receiver_objecttype=10
2015-02-16 15:47:23 notification_id=33, instance_id=1, notification_type=1, notification_reason=0, object_id=139, start_time=1423620604000, start_time_usec=878172, end_time=1423620604000, end_time_usec=878362, state=2, output="CRITICAL - load average: 18.18, 17.97, 17.51", long_output="CRITICAL - load average: 18.18, 17.97, 17.51", escalated=0, contacts_notified=1, sender_name1="localhost", sender_name2="Current Load", sender_objecttype=2, receiver_name1="nagiosadmin", receiver_name2="NULL", receiver_objecttype=10
2015-02-16 15:47:23 notification_id=34, instance_id=1, notification_type=1, notification_reason=0, object_id=139, start_time=1423624204000, start_time_usec=894538, end_time=1423624204000, end_time_usec=894747, state=2, output="CRITICAL - load average: 17.80, 17.56, 17.41", long_output="CRITICAL - load average: 17.80, 17.56, 17.41", escalated=0, contacts_notified=1, sender_name1="localhost", sender_name2="Current Load", sender_objecttype=2, receiver_name1="nagiosadmin", receiver_name2="NULL", receiver_objecttype=10
2015-02-16 15:47:23 notification_id=35, instance_id=1, notification_type=1, notification_reason=0, object_id=139, start_time=1423627804000, start_time_usec=896039, end_time=1423627804000, end_time_usec=896248, state=2, output="CRITICAL - load average: 17.15, 17.23, 17.18", long_output="CRITICAL - load average: 17.15, 17.23, 17.18", escalated=0, contacts_notified=1, sender_name1="localhost", sender_name2="Current Load", sender_objecttype=2, receiver_name1="nagiosadmin", receiver_name2="NULL", receiver_objecttype=10
2015-02-16 15:47:23 notification_id=36, instance_id=1, notification_type=1, notification_reason=0, object_id=139, start_time=1423631404000, start_time_usec=897955, end_time=1423631404000, end_time_usec=898147, state=2, output="CRITICAL - load average: 16.68, 16.95, 17.06", long_output="CRITICAL - load average: 16.68, 16.95, 17.06", escalated=0, contacts_notified=1, sender_name1="localhost", sender_name2="Current Load", sender_objecttype=2, receiver_name1="nagiosadmin", receiver_name2="NULL", receiver_objecttype=10
2015-02-16 15:47:23 notification_id=37, instance_id=1, notification_type=1, notification_reason=0, object_id=139, start_time=1423635004000, start_time_usec=884114, end_time=1423635004000, end_time_usec=884317, state=2, output="CRITICAL - load average: 17.53, 17.17, 17.06", long_output="CRITICAL - load average: 17.53, 17.17, 17.06", escalated=0, contacts_notified=1, sender_name1="localhost", sender_name2="Current Load", sender_objecttype=2, receiver_name1="nagiosadmin", receiver_name2="NULL", receiver_objecttype=10
2015-02-16 15:47:23 notification_id=38, instance_id=1, notification_type=1, notification_reason=0, object_id=139, start_time=1423638604000, start_time_usec=885025, end_time=1423638604000, end_time_usec=885222, state=2, output="CRITICAL - load average: 17.39, 17.08, 17.01", long_output="CRITICAL - load average: 17.39, 17.08, 17.01", escalated=0, contacts_notified=1, sender_name1="localhost", sender_name2="Current Load", sender_objecttype=2, receiver_name1="nagiosadmin", receiver_name2="NULL", receiver_objecttype=10
2015-02-16 15:47:23 notification_id=39, instance_id=1, notification_type=1, notification_reason=0, object_id=139, start_time=1423642204000, start_time_usec=884235, end_time=1423642204000, end_time_usec=884464, state=2, output="CRITICAL - load average: 16.50, 16.72, 16.85", long_output="CRITICAL - load average: 16.50, 16.72, 16.85", escalated=0, contacts_notified=1, sender_name1="localhost", sender_name2="Current Load", sender_objecttype=2, receiver_name1="nagiosadmin", receiver_name2="NULL", receiver_objecttype=10
2015-02-16 15:47:23 notification_id=40, instance_id=1, notification_type=1, notification_reason=0, object_id=139, start_time=1423645804000, start_time_usec=882201, end_time=1423645804000, end_time_usec=882418, state=2, output="CRITICAL - load average: 17.26, 17.50, 17.40", long_output="CRITICAL - load average: 17.26, 17.50, 17.40", escalated=0, contacts_notified=1, sender_name1="localhost", sender_name2="Current Load", sender_objecttype=2, receiver_name1="nagiosadmin", receiver_name2="NULL", receiver_objecttype=10
2015-02-16 15:47:23 notification_id=41, instance_id=1, notification_type=1, notification_reason=0, object_id=139, start_time=1423649404000, start_time_usec=884101, end_time=1423649404000, end_time_usec=884302, state=2, output="CRITICAL - load average: 17.71, 17.38, 17.32", long_output="CRITICAL - load average: 17.71, 17.38, 17.32", escalated=0, contacts_notified=1, sender_name1="localhost", sender_name2="Current Load", sender_objecttype=2, receiver_name1="nagiosadmin", receiver_name2="NULL", receiver_objecttype=10
2015-02-16 15:47:23 notification_id=42, instance_id=1, notification_type=1, notification_reason=0, object_id=139, start_time=1423653004000, start_time_usec=903893, end_time=1423653004000, end_time_usec=904150, state=2, output="CRITICAL - load average: 17.32, 17.23, 17.22", long_output="CRITICAL - load average: 17.32, 17.23, 17.22", escalated=0, contacts_notified=1, sender_name1="localhost", sender_name2="Current Load", sender_objecttype=2, receiver_name1="nagiosadmin", receiver_name2="NULL", receiver_objecttype=10
2015-02-16 15:47:23 notification_id=43, instance_id=1, notification_type=1, notification_reason=0, object_id=139, start_time=1423656604000, start_time_usec=886250, end_time=1423656604000, end_time_usec=886526, state=2, output="CRITICAL - load average: 17.36, 17.23, 17.14", long_output="CRITICAL - load average: 17.36, 17.23, 17.14", escalated=0, contacts_notified=1, sender_name1="localhost", sender_name2="Current Load", sender_objecttype=2, receiver_name1="nagiosadmin", receiver_name2="NULL", receiver_objecttype=10
2015-02-16 15:47:23 notification_id=44, instance_id=1, notification_type=1, notification_reason=0, object_id=139, start_time=1423660204000, start_time_usec=912085, end_time=1423660204000, end_time_usec=912307, state=2, output="CRITICAL - load average: 18.01, 17.59, 17.34", long_output="CRITICAL - load average: 18.01, 17.59, 17.34", escalated=0, contacts_notified=1, sender_name1="localhost", sender_name2="Current Load", sender_objecttype=2, receiver_name1="nagiosadmin", receiver_name2="NULL", receiver_objecttype=10
2015-02-16 15:47:23 notification_id=45, instance_id=1, notification_type=1, notification_reason=0, object_id=139, start_time=1423663804000, start_time_usec=883020, end_time=1423663804000, end_time_usec=883210, state=2, output="CRITICAL - load average: 17.09, 16.99, 17.02", long_output="CRITICAL - load average: 17.09, 16.99, 17.02", escalated=0, contacts_notified=1, sender_name1="localhost", sender_name2="Current Load", sender_objecttype=2, receiver_name1="nagiosadmin", receiver_name2="NULL", receiver_objecttype=10
2015-02-16 15:47:23 notification_id=46, instance_id=1, notification_type=1, notification_reason=0, object_id=139, start_time=1423667404000, start_time_usec=891973, end_time=1423667404000, end_time_usec=892203, state=2, output="CRITICAL - load average: 17.05, 17.04, 17.26", long_output="CRITICAL - load average: 17.05, 17.04, 17.26", escalated=0, contacts_notified=1, sender_name1="localhost", sender_name2="Current Load", sender_objecttype=2, receiver_name1="nagiosadmin", receiver_name2="NULL", receiver_objecttype=10
2015-02-16 15:47:23 notification_id=47, instance_id=1, notification_type=1, notification_reason=0, object_id=139, start_time=1423671004000, start_time_usec=882067, end_time=1423671004000, end_time_usec=882288, state=2, output="CRITICAL - load average: 17.66, 17.53, 17.39", long_output="CRITICAL - load average: 17.66, 17.53, 17.39", escalated=0, contacts_notified=1, sender_name1="localhost", sender_name2="Current Load", sender_objecttype=2, receiver_name1="nagiosadmin", receiver_name2="NULL", receiver_objecttype=10
2015-02-16 15:47:23 notification_id=48, instance_id=1, notification_type=1, notification_reason=0, object_id=139, start_time=1423674604000, start_time_usec=895984, end_time=1423674604000, end_time_usec=897608, state=2, output="CRITICAL - load average: 18.19, 17.62, 17.46", long_output="CRITICAL - load average: 18.19, 17.62, 17.46", escalated=0, contacts_notified=1, sender_name1="localhost", sender_name2="Current Load", sender_objecttype=2, receiver_name1="nagiosadmin", receiver_name2="NULL", receiver_objecttype=10
2015-02-16 15:47:23 notification_id=49, instance_id=1, notification_type=1, notification_reason=0, object_id=139, start_time=1423678204000, start_time_usec=884565, end_time=1423678204000, end_time_usec=884797, state=2, output="CRITICAL - load average: 17.95, 17.42, 17.34", long_output="CRITICAL - load average: 17.95, 17.42, 17.34", escalated=0, contacts_notified=1, sender_name1="localhost", sender_name2="Current Load", sender_objecttype=2, receiver_name1="nagiosadmin", receiver_name2="NULL", receiver_objecttype=10
2015-02-16 15:47:23 notification_id=50, instance_id=1, notification_type=1, notification_reason=0, object_id=139, start_time=1423681804000, start_time_usec=903157, end_time=1423681804000, end_time_usec=903359, state=2, output="CRITICAL - load average: 17.20, 17.22, 17.38", long_output="CRITICAL - load average: 17.20, 17.22, 17.38", escalated=0, contacts_notified=1, sender_name1="localhost", sender_name2="Current Load", sender_objecttype=2, receiver_name1="nagiosadmin", receiver_name2="NULL", receiver_objecttype=10
2015-02-16 15:47:23 notification_id=51, instance_id=1, notification_type=1, notification_reason=0, object_id=139, start_time=1423685404000, start_time_usec=870137, end_time=1423685404000, end_time_usec=870346, state=2, output="CRITICAL - load average: 17.57, 17.33, 17.16", long_output="CRITICAL - load average: 17.57, 17.33, 17.16", escalated=0, contacts_notified=1, sender_name1="localhost", sender_name2="Current Load", sender_objecttype=2, receiver_name1="nagiosadmin", receiver_name2="NULL", receiver_objecttype=10
2015-02-16 15:47:23 notification_id=52, instance_id=1, notification_type=1, notification_reason=0, object_id=139, start_time=1423689004000, start_time_usec=885069, end_time=1423689004000, end_time_usec=885277, state=2, output="CRITICAL - load average: 17.26, 17.06, 17.01", long_output="CRITICAL - load average: 17.26, 17.06, 17.01", escalated=0, contacts_notified=1, sender_name1="localhost", sender_name2="Current Load", sender_objecttype=2, receiver_name1="nagiosadmin", receiver_name2="NULL", receiver_objecttype=10
2015-02-16 15:47:23 notification_id=53, instance_id=1, notification_type=1, notification_reason=0, object_id=139, start_time=1423692604000, start_time_usec=896224, end_time=1423692604000, end_time_usec=896420, state=2, output="CRITICAL - load average: 16.81, 16.84, 16.85", long_output="CRITICAL - load average: 16.81, 16.84, 16.85", escalated=0, contacts_notified=1, sender_name1="localhost", sender_name2="Current Load", sender_objecttype=2, receiver_name1="nagiosadmin", receiver_name2="NULL", receiver_objecttype=10
2015-02-16 15:47:23 notification_id=54, instance_id=1, notification_type=1, notification_reason=0, object_id=139, start_time=1423696204000, start_time_usec=892370, end_time=1423696204000, end_time_usec=892614, state=2, output="CRITICAL - load average: 17.22, 17.48, 17.46", long_output="CRITICAL - load average: 17.22, 17.48, 17.46", escalated=0, contacts_notified=1, sender_name1="localhost", sender_name2="Current Load", sender_objecttype=2, receiver_name1="nagiosadmin", receiver_name2="NULL", receiver_objecttype=10
2015-02-16 15:47:23 notification_id=55, instance_id=1, notification_type=1, notification_reason=0, object_id=139, start_time=1423699804000, start_time_usec=887803, end_time=1423699804000, end_time_usec=888111, state=2, output="CRITICAL - load average: 17.50, 17.34, 17.40", long_output="CRITICAL - load average: 17.50, 17.34, 17.40", escalated=0, contacts_notified=1, sender_name1="localhost", sender_name2="Current Load", sender_objecttype=2, receiver_name1="nagiosadmin", receiver_name2="NULL", receiver_objecttype=10
2015-02-16 15:47:23 notification_id=56, instance_id=1, notification_type=1, notification_reason=0, object_id=139, start_time=1423703404000, start_time_usec=884243, end_time=1423703404000, end_time_usec=884472, state=2, output="CRITICAL - load average: 17.53, 17.24, 17.22", long_output="CRITICAL - load average: 17.53, 17.24, 17.22", escalated=0, contacts_notified=1, sender_name1="localhost", sender_name2="Current Load", sender_objecttype=2, receiver_name1="nagiosadmin", receiver_name2="NULL", receiver_objecttype=10
2015-02-16 15:47:23 notification_id=57, instance_id=1, notification_type=1, notification_reason=0, object_id=139, start_time=1423707004000, start_time_usec=887429, end_time=1423707004000, end_time_usec=887664, state=2, output="CRITICAL - load average: 17.45, 17.33, 17.21", long_output="CRITICAL - load average: 17.45, 17.33, 17.21", escalated=0, contacts_notified=1, sender_name1="localhost", sender_name2="Current Load", sender_objecttype=2, receiver_name1="nagiosadmin", receiver_name2="NULL", receiver_objecttype=10
2015-02-16 15:47:23 notification_id=58, instance_id=1, notification_type=1, notification_reason=0, object_id=139, start_time=1423710604000, start_time_usec=896191, end_time=1423710604000, end_time_usec=896385, state=2, output="CRITICAL - load average: 17.78, 17.38, 17.17", long_output="CRITICAL - load average: 17.78, 17.38, 17.17", escalated=0, contacts_notified=1, sender_name1="localhost", sender_name2="Current Load", sender_objecttype=2, receiver_name1="nagiosadmin", receiver_name2="NULL", receiver_objecttype=10
2015-02-16 15:47:23 notification_id=59, instance_id=1, notification_type=1, notification_reason=0, object_id=139, start_time=1423714204000, start_time_usec=882166, end_time=1423714204000, end_time_usec=882372, state=2, output="CRITICAL - load average: 17.16, 16.99, 16.98", long_output="CRITICAL - load average: 17.16, 16.99, 16.98", escalated=0, contacts_notified=1, sender_name1="localhost", sender_name2="Current Load", sender_objecttype=2, receiver_name1="nagiosadmin", receiver_name2="NULL", receiver_objecttype=10
2015-02-16 15:47:23 notification_id=60, instance_id=1, notification_type=1, notification_reason=0, object_id=139, start_time=1423717804000, start_time_usec=891950, end_time=1423717804000, end_time_usec=892168, state=2, output="CRITICAL - load average: 16.89, 16.95, 16.91", long_output="CRITICAL - load average: 16.89, 16.95, 16.91", escalated=0, contacts_notified=1, sender_name1="localhost", sender_name2="Current Load", sender_objecttype=2, receiver_name1="nagiosadmin", receiver_name2="NULL", receiver_objecttype=10
2015-02-16 15:47:23 notification_id=61, instance_id=1, notification_type=1, notification_reason=0, object_id=139, start_time=1423721404000, start_time_usec=900050, end_time=1423721404000, end_time_usec=900673, state=2, output="CRITICAL - load average: 18.13, 17.65, 17.52", long_output="CRITICAL - load average: 18.13, 17.65, 17.52", escalated=0, contacts_notified=1, sender_name1="localhost", sender_name2="Current Load", sender_objecttype=2, receiver_name1="nagiosadmin", receiver_name2="NULL", receiver_objecttype=10
2015-02-16 15:47:23 notification_id=62, instance_id=1, notification_type=1, notification_reason=0, object_id=139, start_time=1423725004000, start_time_usec=872618, end_time=1423725004000, end_time_usec=872888, state=2, output="CRITICAL - load average: 17.31, 17.22, 17.26", long_output="CRITICAL - load average: 17.31, 17.22, 17.26", escalated=0, contacts_notified=1, sender_name1="localhost", sender_name2="Current Load", sender_objecttype=2, receiver_name1="nagiosadmin", receiver_name2="NULL", receiver_objecttype=10
2015-02-16 15:47:23 notification_id=63, instance_id=1, notification_type=1, notification_reason=0, object_id=139, start_time=1423728604000, start_time_usec=882424, end_time=1423728604000, end_time_usec=882764, state=2, output="CRITICAL - load average: 17.10, 17.10, 17.09", long_output="CRITICAL - load average: 17.10, 17.10, 17.09", escalated=0, contacts_notified=1, sender_name1="localhost", sender_name2="Current Load", sender_objecttype=2, receiver_name1="nagiosadmin", receiver_name2="NULL", receiver_objecttype=10
2015-02-16 15:47:23 notification_id=64, instance_id=1, notification_type=1, notification_reason=0, object_id=139, start_time=1423732204000, start_time_usec=881116, end_time=1423732204000, end_time_usec=881339, state=2, output="CRITICAL - load average: 17.44, 17.25, 17.16", long_output="CRITICAL - load average: 17.44, 17.25, 17.16", escalated=0, contacts_notified=1, sender_name1="localhost", sender_name2="Current Load", sender_objecttype=2, receiver_name1="nagiosadmin", receiver_name2="NULL", receiver_objecttype=10
2015-02-16 15:47:23 notification_id=65, instance_id=1, notification_type=1, notification_reason=0, object_id=139, start_time=1423735804000, start_time_usec=882845, end_time=1423735804000, end_time_usec=883101, state=2, output="CRITICAL - load average: 17.02, 17.17, 17.14", long_output="CRITICAL - load average: 17.02, 17.17, 17.14", escalated=0, contacts_notified=1, sender_name1="localhost", sender_name2="Current Load", sender_objecttype=2, receiver_name1="nagiosadmin", receiver_name2="NULL", receiver_objecttype=10
2015-02-16 15:47:23 notification_id=66, instance_id=1, notification_type=1, notification_reason=0, object_id=139, start_time=1423739404000, start_time_usec=896650, end_time=1423739404000, end_time_usec=896878, state=2, output="CRITICAL - load average: 16.98, 16.98, 16.93", long_output="CRITICAL - load average: 16.98, 16.98, 16.93", escalated=0, contacts_notified=1, sender_name1="localhost", sender_name2="Current Load", sender_objecttype=2, receiver_name1="nagiosadmin", receiver_name2="NULL", receiver_objecttype=10
2015-02-16 15:47:23 notification_id=67, instance_id=1, notification_type=1, notification_reason=0, object_id=139, start_time=1423743004000, start_time_usec=879259, end_time=1423743004000, end_time_usec=879475, state=2, output="CRITICAL - load average: 17.40, 17.30, 17.05", long_output="CRITICAL - load average: 17.40, 17.30, 17.05", escalated=0, contacts_notified=1, sender_name1="localhost", sender_name2="Current Load", sender_objecttype=2, receiver_name1="nagiosadmin", receiver_name2="NULL", receiver_objecttype=10
2015-02-16 15:47:23 notification_id=68, instance_id=1, notification_type=1, notification_reason=0, object_id=139, start_time=1423746604000, start_time_usec=885045, end_time=1423746604000, end_time_usec=885292, state=2, output="CRITICAL - load average: 17.89, 17.63, 17.58", long_output="CRITICAL - load average: 17.89, 17.63, 17.58", escalated=0, contacts_notified=1, sender_name1="localhost", sender_name2="Current Load", sender_objecttype=2, receiver_name1="nagiosadmin", receiver_name2="NULL", receiver_objecttype=10
2015-02-16 15:47:23 notification_id=69, instance_id=1, notification_type=1, notification_reason=0, object_id=139, start_time=1423750204000, start_time_usec=885038, end_time=1423750204000, end_time_usec=885316, state=2, output="CRITICAL - load average: 18.16, 18.10, 18.25", long_output="CRITICAL - load average: 18.16, 18.10, 18.25", escalated=0, contacts_notified=1, sender_name1="localhost", sender_name2="Current Load", sender_objecttype=2, receiver_name1="nagiosadmin", receiver_name2="NULL", receiver_objecttype=10
2015-02-16 15:47:23 notification_id=70, instance_id=1, notification_type=1, notification_reason=0, object_id=139, start_time=1423753804000, start_time_usec=902086, end_time=1423753804000, end_time_usec=902305, state=2, output="CRITICAL - load average: 17.43, 17.29, 17.40", long_output="CRITICAL - load average: 17.43, 17.29, 17.40", escalated=0, contacts_notified=1, sender_name1="localhost", sender_name2="Current Load", sender_objecttype=2, receiver_name1="nagiosadmin", receiver_name2="NULL", receiver_objecttype=10
2015-02-16 15:47:23 notification_id=71, instance_id=1, notification_type=1, notification_reason=0, object_id=139, start_time=1423757404000, start_time_usec=882112, end_time=1423757404000, end_time_usec=882334, state=2, output="CRITICAL - load average: 16.86, 17.03, 17.10", long_output="CRITICAL - load average: 16.86, 17.03, 17.10", escalated=0, contacts_notified=1, sender_name1="localhost", sender_name2="Current Load", sender_objecttype=2, receiver_name1="nagiosadmin", receiver_name2="NULL", receiver_objecttype=10
2015-02-16 15:47:23 notification_id=72, instance_id=1, notification_type=1, notification_reason=0, object_id=139, start_time=1423761004000, start_time_usec=894099, end_time=1423761004000, end_time_usec=894302, state=2, output="CRITICAL - load average: 19.72, 18.98, 17.87", long_output="CRITICAL - load average: 19.72, 18.98, 17.87", escalated=0, contacts_notified=1, sender_name1="localhost", sender_name2="Current Load", sender_objecttype=2, receiver_name1="nagiosadmin", receiver_name2="NULL", receiver_objecttype=10
2015-02-16 15:47:23 notification_id=73, instance_id=1, notification_type=1, notification_reason=0, object_id=139, start_time=1423764604000, start_time_usec=881143, end_time=1423764604000, end_time_usec=881333, state=2, output="CRITICAL - load average: 17.43, 17.55, 17.44", long_output="CRITICAL - load average: 17.43, 17.55, 17.44", escalated=0, contacts_notified=1, sender_name1="localhost", sender_name2="Current Load", sender_objecttype=2, receiver_name1="nagiosadmin", receiver_name2="NULL", receiver_objecttype=10
2015-02-16 15:47:23 notification_id=74, instance_id=1, notification_type=1, notification_reason=0, object_id=139, start_time=1423768204000, start_time_usec=884213, end_time=1423768204000, end_time_usec=884416, state=2, output="CRITICAL - load average: 17.65, 17.61, 17.53", long_output="CRITICAL - load average: 17.65, 17.61, 17.53", escalated=0, contacts_notified=1, sender_name1="localhost", sender_name2="Current Load", sender_objecttype=2, receiver_name1="nagiosadmin", receiver_name2="NULL", receiver_objecttype=10
2015-02-16 15:47:23 notification_id=75, instance_id=1, notification_type=1, notification_reason=0, object_id=139, start_time=1423771804000, start_time_usec=884954, end_time=1423771804000, end_time_usec=885158, state=2, output="CRITICAL - load average: 18.21, 17.99, 17.90", long_output="CRITICAL - load average: 18.21, 17.99, 17.90", escalated=0, contacts_notified=1, sender_name1="localhost", sender_name2="Current Load", sender_objecttype=2, receiver_name1="nagiosadmin", receiver_name2="NULL", receiver_objecttype=10
2015-02-16 15:47:23 notification_id=76, instance_id=1, notification_type=1, notification_reason=0, object_id=139, start_time=1423775404000, start_time_usec=874930, end_time=1423775404000, end_time_usec=875141, state=2, output="CRITICAL - load average: 18.63, 18.11, 17.89", long_output="CRITICAL - load average: 18.63, 18.11, 17.89", escalated=0, contacts_notified=1, sender_name1="localhost", sender_name2="Current Load", sender_objecttype=2, receiver_name1="nagiosadmin", receiver_name2="NULL", receiver_objecttype=10
2015-02-16 15:47:23 notification_id=77, instance_id=1, notification_type=1, notification_reason=0, object_id=139, start_time=1423779004000, start_time_usec=880389, end_time=1423779004000, end_time_usec=880597, state=2, output="CRITICAL - load average: 17.38, 17.21, 17.15", long_output="CRITICAL - load average: 17.38, 17.21, 17.15", escalated=0, contacts_notified=1, sender_name1="localhost", sender_name2="Current Load", sender_objecttype=2, receiver_name1="nagiosadmin", receiver_name2="NULL", receiver_objecttype=10
2015-02-16 15:47:23 notification_id=78, instance_id=1, notification_type=1, notification_reason=0, object_id=139, start_time=1423782604000, start_time_usec=883396, end_time=1423782604000, end_time_usec=883602, state=2, output="CRITICAL - load average: 17.49, 17.23, 17.14", long_output="CRITICAL - load average: 17.49, 17.23, 17.14", escalated=0, contacts_notified=1, sender_name1="localhost", sender_name2="Current Load", sender_objecttype=2, receiver_name1="nagiosadmin", receiver_name2="NULL", receiver_objecttype=10
2015-02-16 15:47:23 notification_id=79, instance_id=1, notification_type=1, notification_reason=0, object_id=139, start_time=1423786204000, start_time_usec=886182, end_time=1423786204000, end_time_usec=886828, state=2, output="CRITICAL - load average: 17.57, 17.35, 17.21", long_output="CRITICAL - load average: 17.57, 17.35, 17.21", escalated=0, contacts_notified=1, sender_name1="localhost", sender_name2="Current Load", sender_objecttype=2, receiver_name1="nagiosadmin", receiver_name2="NULL", receiver_objecttype=10
2015-02-16 15:47:23 notification_id=80, instance_id=1, notification_type=1, notification_reason=0, object_id=139, start_time=1423789804000, start_time_usec=885292, end_time=1423789804000, end_time_usec=885504, state=2, output="CRITICAL - load average: 16.58, 16.80, 16.85", long_output="CRITICAL - load average: 16.58, 16.80, 16.85", escalated=0, contacts_notified=1, sender_name1="localhost", sender_name2="Current Load", sender_objecttype=2, receiver_name1="nagiosadmin", receiver_name2="NULL", receiver_objecttype=10
2015-02-16 15:47:23 notification_id=81, instance_id=1, notification_type=1, notification_reason=0, object_id=139, start_time=1423793404000, start_time_usec=880115, end_time=1423793404000, end_time_usec=880355, state=2, output="CRITICAL - load average: 17.71, 17.29, 17.13", long_output="CRITICAL - load average: 17.71, 17.29, 17.13", escalated=0, contacts_notified=1, sender_name1="localhost", sender_name2="Current Load", sender_objecttype=2, receiver_name1="nagiosadmin", receiver_name2="NULL", receiver_objecttype=10
2015-02-16 15:47:23 notification_id=82, instance_id=1, notification_type=1, notification_reason=0, object_id=139, start_time=1423797004000, start_time_usec=893423, end_time=1423797004000, end_time_usec=894735, state=2, output="CRITICAL - load average: 18.35, 17.88, 17.63", long_output="CRITICAL - load average: 18.35, 17.88, 17.63", escalated=0, contacts_notified=1, sender_name1="localhost", sender_name2="Current Load", sender_objecttype=2, receiver_name1="nagiosadmin", receiver_name2="NULL", receiver_objecttype=10
2015-02-16 15:47:23 notification_id=83, instance_id=1, notification_type=1, notification_reason=0, object_id=139, start_time=1423800604000, start_time_usec=872294, end_time=1423800604000, end_time_usec=872512, state=2, output="CRITICAL - load average: 18.22, 17.43, 17.24", long_output="CRITICAL - load average: 18.22, 17.43, 17.24", escalated=0, contacts_notified=1, sender_name1="localhost", sender_name2="Current Load", sender_objecttype=2, receiver_name1="nagiosadmin", receiver_name2="NULL", receiver_objecttype=10
2015-02-16 15:47:23 notification_id=84, instance_id=1, notification_type=1, notification_reason=0, object_id=139, start_time=1423804204000, start_time_usec=886156, end_time=1423804204000, end_time_usec=886358, state=2, output="CRITICAL - load average: 17.17, 17.09, 17.07", long_output="CRITICAL - load average: 17.17, 17.09, 17.07", escalated=0, contacts_notified=1, sender_name1="localhost", sender_name2="Current Load", sender_objecttype=2, receiver_name1="nagiosadmin", receiver_name2="NULL", receiver_objecttype=10
2015-02-16 15:47:23 notification_id=85, instance_id=1, notification_type=1, notification_reason=0, object_id=139, start_time=1423807804000, start_time_usec=890301, end_time=1423807804000, end_time_usec=890624, state=2, output="CRITICAL - load average: 17.30, 17.21, 17.13", long_output="CRITICAL - load average: 17.30, 17.21, 17.13", escalated=0, contacts_notified=1, sender_name1="localhost", sender_name2="Current Load", sender_objecttype=2, receiver_name1="nagiosadmin", receiver_name2="NULL", receiver_objecttype=10
2015-02-16 15:47:23 notification_id=86, instance_id=1, notification_type=1, notification_reason=0, object_id=139, start_time=1423811404000, start_time_usec=880177, end_time=1423811404000, end_time_usec=880381, state=2, output="CRITICAL - load average: 16.97, 16.98, 16.98", long_output="CRITICAL - load average: 16.97, 16.98, 16.98", escalated=0, contacts_notified=1, sender_name1="localhost", sender_name2="Current Load", sender_objecttype=2, receiver_name1="nagiosadmin", receiver_name2="NULL", receiver_objecttype=10
2015-02-16 15:47:23 notification_id=87, instance_id=1, notification_type=1, notification_reason=0, object_id=139, start_time=1423815004000, start_time_usec=891871, end_time=1423815004000, end_time_usec=892075, state=2, output="CRITICAL - load average: 16.41, 16.76, 16.79", long_output="CRITICAL - load average: 16.41, 16.76, 16.79", escalated=0, contacts_notified=1, sender_name1="localhost", sender_name2="Current Load", sender_objecttype=2, receiver_name1="nagiosadmin", receiver_name2="NULL", receiver_objecttype=10
2015-02-16 15:47:23 notification_id=88, instance_id=1, notification_type=1, notification_reason=0, object_id=139, start_time=1423818604000, start_time_usec=888093, end_time=1423818604000, end_time_usec=888292, state=2, output="CRITICAL - load average: 17.30, 17.31, 17.13", long_output="CRITICAL - load average: 17.30, 17.31, 17.13", escalated=0, contacts_notified=1, sender_name1="localhost", sender_name2="Current Load", sender_objecttype=2, receiver_name1="nagiosadmin", receiver_name2="NULL", receiver_objecttype=10
2015-02-16 15:47:23 notification_id=89, instance_id=1, notification_type=1, notification_reason=0, object_id=139, start_time=1423822204000, start_time_usec=896289, end_time=1423822204000, end_time_usec=896487, state=2, output="CRITICAL - load average: 18.39, 17.57, 17.41", long_output="CRITICAL - load average: 18.39, 17.57, 17.41", escalated=0, contacts_notified=1, sender_name1="localhost", sender_name2="Current Load", sender_objecttype=2, receiver_name1="nagiosadmin", receiver_name2="NULL", receiver_objecttype=10
2015-02-16 15:47:23 notification_id=90, instance_id=1, notification_type=1, notification_reason=0, object_id=139, start_time=1423825804000, start_time_usec=882681, end_time=1423825804000, end_time_usec=882880, state=2, output="CRITICAL - load average: 18.23, 17.91, 17.58", long_output="CRITICAL - load average: 18.23, 17.91, 17.58", escalated=0, contacts_notified=1, sender_name1="localhost", sender_name2="Current Load", sender_objecttype=2, receiver_name1="nagiosadmin", receiver_name2="NULL", receiver_objecttype=10
2015-02-16 15:47:23 notification_id=91, instance_id=1, notification_type=1, notification_reason=0, object_id=139, start_time=1423829404000, start_time_usec=881236, end_time=1423829404000, end_time_usec=881457, state=2, output="CRITICAL - load average: 17.10, 17.06, 17.07", long_output="CRITICAL - load average: 17.10, 17.06, 17.07", escalated=0, contacts_notified=1, sender_name1="localhost", sender_name2="Current Load", sender_objecttype=2, receiver_name1="nagiosadmin", receiver_name2="NULL", receiver_objecttype=10
2015-02-16 15:47:23 notification_id=92, instance_id=1, notification_type=1, notification_reason=0, object_id=139, start_time=1423833004000, start_time_usec=887181, end_time=1423833004000, end_time_usec=887405, state=2, output="CRITICAL - load average: 17.17, 17.14, 17.08", long_output="CRITICAL - load average: 17.17, 17.14, 17.08", escalated=0, contacts_notified=1, sender_name1="localhost", sender_name2="Current Load", sender_objecttype=2, receiver_name1="nagiosadmin", receiver_name2="NULL", receiver_objecttype=10
2015-02-16 15:47:23 notification_id=93, instance_id=1, notification_type=1, notification_reason=0, object_id=139, start_time=1423836604000, start_time_usec=872168, end_time=1423836604000, end_time_usec=872355, state=2, output="CRITICAL - load average: 16.97, 16.92, 16.98", long_output="CRITICAL - load average: 16.97, 16.92, 16.98", escalated=0, contacts_notified=1, sender_name1="localhost", sender_name2="Current Load", sender_objecttype=2, receiver_name1="nagiosadmin", receiver_name2="NULL", receiver_objecttype=10
2015-02-16 15:47:23 notification_id=94, instance_id=1, notification_type=1, notification_reason=0, object_id=139, start_time=1423840204000, start_time_usec=891378, end_time=1423840204000, end_time_usec=891636, state=2, output="CRITICAL - load average: 16.70, 16.82, 16.91", long_output="CRITICAL - load average: 16.70, 16.82, 16.91", escalated=0, contacts_notified=1, sender_name1="localhost", sender_name2="Current Load", sender_objecttype=2, receiver_name1="nagiosadmin", receiver_name2="NULL", receiver_objecttype=10
2015-02-16 15:47:23 notification_id=95, instance_id=1, notification_type=1, notification_reason=0, object_id=139, start_time=1423843804000, start_time_usec=876004, end_time=1423843804000, end_time_usec=877348, state=2, output="CRITICAL - load average: 16.53, 16.83, 16.92", long_output="CRITICAL - load average: 16.53, 16.83, 16.92", escalated=0, contacts_notified=1, sender_name1="localhost", sender_name2="Current Load", sender_objecttype=2, receiver_name1="nagiosadmin", receiver_name2="NULL", receiver_objecttype=10
2015-02-16 15:47:23 notification_id=96, instance_id=1, notification_type=1, notification_reason=0, object_id=139, start_time=1423847404000, start_time_usec=887363, end_time=1423847404000, end_time_usec=887570, state=2, output="CRITICAL - load average: 17.93, 17.52, 17.47", long_output="CRITICAL - load average: 17.93, 17.52, 17.47", escalated=0, contacts_notified=1, sender_name1="localhost", sender_name2="Current Load", sender_objecttype=2, receiver_name1="nagiosadmin", receiver_name2="NULL", receiver_objecttype=10
2015-02-16 15:47:23 notification_id=97, instance_id=1, notification_type=1, notification_reason=0, object_id=139, start_time=1423851004000, start_time_usec=891243, end_time=1423851004000, end_time_usec=891454, state=2, output="CRITICAL - load average: 18.57, 17.62, 17.35", long_output="CRITICAL - load average: 18.57, 17.62, 17.35", escalated=0, contacts_notified=1, sender_name1="localhost", sender_name2="Current Load", sender_objecttype=2, receiver_name1="nagiosadmin", receiver_name2="NULL", receiver_objecttype=10
2015-02-16 15:47:23 notification_id=98, instance_id=1, notification_type=1, notification_reason=0, object_id=139, start_time=1423854604000, start_time_usec=877134, end_time=1423854604000, end_time_usec=877351, state=2, output="CRITICAL - load average: 17.31, 17.18, 17.10", long_output="CRITICAL - load average: 17.31, 17.18, 17.10", escalated=0, contacts_notified=1, sender_name1="localhost", sender_name2="Current Load", sender_objecttype=2, receiver_name1="nagiosadmin", receiver_name2="NULL", receiver_objecttype=10
2015-02-16 15:47:23 notification_id=99, instance_id=1, notification_type=1, notification_reason=0, object_id=139, start_time=1423858204000, start_time_usec=888170, end_time=1423858204000, end_time_usec=888381, state=2, output="CRITICAL - load average: 17.10, 17.10, 17.02", long_output="CRITICAL - load average: 17.10, 17.10, 17.02", escalated=0, contacts_notified=1, sender_name1="localhost", sender_name2="Current Load", sender_objecttype=2, receiver_name1="nagiosadmin", receiver_name2="NULL", receiver_objecttype=10
2015-02-16 15:47:23 notification_id=100, instance_id=1, notification_type=1, notification_reason=0, object_id=139, start_time=1423861804000, start_time_usec=892461, end_time=1423861804000, end_time_usec=892660, state=2, output="CRITICAL - load average: 17.04, 17.09, 17.09", long_output="CRITICAL - load average: 17.04, 17.09, 17.09", escalated=0, contacts_notified=1, sender_name1="localhost", sender_name2="Current Load", sender_objecttype=2, receiver_name1="nagiosadmin", receiver_name2="NULL", receiver_objecttype=10
2015-02-16 15:47:23 notification_id=101, instance_id=1, notification_type=1, notification_reason=0, object_id=139, start_time=1423865404000, start_time_usec=880145, end_time=1423865404000, end_time_usec=880378, state=2, output="CRITICAL - load average: 16.85, 17.10, 17.00", long_output="CRITICAL - load average: 16.85, 17.10, 17.00", escalated=0, contacts_notified=1, sender_name1="localhost", sender_name2="Current Load", sender_objecttype=2, receiver_name1="nagiosadmin", receiver_name2="NULL", receiver_objecttype=10
2015-02-16 15:47:23 notification_id=102, instance_id=1, notification_type=1, notification_reason=0, object_id=139, start_time=1423869004000, start_time_usec=871717, end_time=1423869004000, end_time_usec=871918, state=2, output="CRITICAL - load average: 18.57, 17.55, 17.16", long_output="CRITICAL - load average: 18.57, 17.55, 17.16", escalated=0, contacts_notified=1, sender_name1="localhost", sender_name2="Current Load", sender_objecttype=2, receiver_name1="nagiosadmin", receiver_name2="NULL", receiver_objecttype=10
2015-02-16 15:47:23 notification_id=103, instance_id=1, notification_type=1, notification_reason=0, object_id=139, start_time=1423872604000, start_time_usec=876049, end_time=1423872604000, end_time_usec=876258, state=2, output="CRITICAL - load average: 17.88, 17.42, 17.43", long_output="CRITICAL - load average: 17.88, 17.42, 17.43", escalated=0, contacts_notified=1, sender_name1="localhost", sender_name2="Current Load", sender_objecttype=2, receiver_name1="nagiosadmin", receiver_name2="NULL", receiver_objecttype=10
2015-02-16 15:47:23 notification_id=104, instance_id=1, notification_type=1, notification_reason=0, object_id=139, start_time=1423876204000, start_time_usec=879380, end_time=1423876204000, end_time_usec=879639, state=2, output="CRITICAL - load average: 17.18, 17.27, 17.27", long_output="CRITICAL - load average: 17.18, 17.27, 17.27", escalated=0, contacts_notified=1, sender_name1="localhost", sender_name2="Current Load", sender_objecttype=2, receiver_name1="nagiosadmin", receiver_name2="NULL", receiver_objecttype=10
2015-02-16 15:47:23 notification_id=105, instance_id=1, notification_type=1, notification_reason=0, object_id=139, start_time=1423879804000, start_time_usec=889160, end_time=1423879804000, end_time_usec=889370, state=2, output="CRITICAL - load average: 17.19, 17.19, 17.13", long_output="CRITICAL - load average: 17.19, 17.19, 17.13", escalated=0, contacts_notified=1, sender_name1="localhost", sender_name2="Current Load", sender_objecttype=2, receiver_name1="nagiosadmin", receiver_name2="NULL", receiver_objecttype=10
2015-02-16 15:47:23 notification_id=106, instance_id=1, notification_type=1, notification_reason=0, object_id=139, start_time=1423883404000, start_time_usec=896936, end_time=1423883404000, end_time_usec=897138, state=2, output="CRITICAL - load average: 17.05, 17.09, 17.09", long_output="CRITICAL - load average: 17.05, 17.09, 17.09", escalated=0, contacts_notified=1, sender_name1="localhost", sender_name2="Current Load", sender_objecttype=2, receiver_name1="nagiosadmin", receiver_name2="NULL", receiver_objecttype=10
2015-02-16 15:47:23 notification_id=107, instance_id=1, notification_type=1, notification_reason=0, object_id=139, start_time=1423887004000, start_time_usec=897044, end_time=1423887004000, end_time_usec=897255, state=2, output="CRITICAL - load average: 16.91, 17.08, 17.14", long_output="CRITICAL - load average: 16.91, 17.08, 17.14", escalated=0, contacts_notified=1, sender_name1="localhost", sender_name2="Current Load", sender_objecttype=2, receiver_name1="nagiosadmin", receiver_name2="NULL", receiver_objecttype=10
2015-02-16 15:47:23 notification_id=108, instance_id=1, notification_type=1, notification_reason=0, object_id=139, start_time=1423890604000, start_time_usec=887950, end_time=1423890604000, end_time_usec=888180, state=2, output="CRITICAL - load average: 17.57, 17.45, 17.15", long_output="CRITICAL - load average: 17.57, 17.45, 17.15", escalated=0, contacts_notified=1, sender_name1="localhost", sender_name2="Current Load", sender_objecttype=2, receiver_name1="nagiosadmin", receiver_name2="NULL", receiver_objecttype=10
2015-02-16 15:47:23 notification_id=109, instance_id=1, notification_type=1, notification_reason=0, object_id=139, start_time=1423894204000, start_time_usec=891977, end_time=1423894204000, end_time_usec=892189, state=2, output="CRITICAL - load average: 16.76, 16.97, 17.08", long_output="CRITICAL - load average: 16.76, 16.97, 17.08", escalated=0, contacts_notified=1, sender_name1="localhost", sender_name2="Current Load", sender_objecttype=2, receiver_name1="nagiosadmin", receiver_name2="NULL", receiver_objecttype=10
2015-02-16 15:47:23 notification_id=110, instance_id=1, notification_type=1, notification_reason=0, object_id=139, start_time=1423897804000, start_time_usec=886231, end_time=1423897804000, end_time_usec=886515, state=2, output="CRITICAL - load average: 17.98, 17.57, 17.47", long_output="CRITICAL - load average: 17.98, 17.57, 17.47", escalated=0, contacts_notified=1, sender_name1="localhost", sender_name2="Current Load", sender_objecttype=2, receiver_name1="nagiosadmin", receiver_name2="NULL", receiver_objecttype=10
2015-02-16 15:47:23 notification_id=111, instance_id=1, notification_type=1, notification_reason=0, object_id=139, start_time=1423901404000, start_time_usec=890142, end_time=1423901404000, end_time_usec=890343, state=2, output="CRITICAL - load average: 17.43, 17.24, 17.24", long_output="CRITICAL - load average: 17.43, 17.24, 17.24", escalated=0, contacts_notified=1, sender_name1="localhost", sender_name2="Current Load", sender_objecttype=2, receiver_name1="nagiosadmin", receiver_name2="NULL", receiver_objecttype=10
2015-02-16 15:47:23 notification_id=112, instance_id=1, notification_type=1, notification_reason=0, object_id=139, start_time=1423905004000, start_time_usec=892002, end_time=1423905004000, end_time_usec=892216, state=2, output="CRITICAL - load average: 16.69, 16.90, 16.98", long_output="CRITICAL - load average: 16.69, 16.90, 16.98", escalated=0, contacts_notified=1, sender_name1="localhost", sender_name2="Current Load", sender_objecttype=2, receiver_name1="nagiosadmin", receiver_name2="NULL", receiver_objecttype=10
2015-02-16 15:47:23 notification_id=113, instance_id=1, notification_type=1, notification_reason=0, object_id=139, start_time=1423908604000, start_time_usec=896491, end_time=1423908604000, end_time_usec=896722, state=2, output="CRITICAL - load average: 16.95, 17.06, 17.10", long_output="CRITICAL - load average: 16.95, 17.06, 17.10", escalated=0, contacts_notified=1, sender_name1="localhost", sender_name2="Current Load", sender_objecttype=2, receiver_name1="nagiosadmin", receiver_name2="NULL", receiver_objecttype=10
2015-02-16 15:47:23 notification_id=114, instance_id=1, notification_type=1, notification_reason=0, object_id=139, start_time=1423912204000, start_time_usec=872063, end_time=1423912204000, end_time_usec=872277, state=2, output="CRITICAL - load average: 16.88, 16.98, 17.03", long_output="CRITICAL - load average: 16.88, 16.98, 17.03", escalated=0, contacts_notified=1, sender_name1="localhost", sender_name2="Current Load", sender_objecttype=2, receiver_name1="nagiosadmin", receiver_name2="NULL", receiver_objecttype=10
2015-02-16 15:47:23 notification_id=115, instance_id=1, notification_type=1, notification_reason=0, object_id=139, start_time=1423915804000, start_time_usec=883336, end_time=1423915804000, end_time_usec=883533, state=2, output="CRITICAL - load average: 16.60, 16.98, 16.99", long_output="CRITICAL - load average: 16.60, 16.98, 16.99", escalated=0, contacts_notified=1, sender_name1="localhost", sender_name2="Current Load", sender_objecttype=2, receiver_name1="nagiosadmin", receiver_name2="NULL", receiver_objecttype=10
